,City,Cloudiness,Country,Date,Humidity,Lat,Lng,Max_Temp,Wind_Speed
0,Neyshabur,0,IR,1551654101,69,36.21,58.79,32.3,1.83
1,Talnakh,32,RU,1551653786,64,69.49,88.39,-8.74,4.41
2,Amazar,80,RU,1551654101,79,53.86,120.88,17.77,2.73
3,Kodiak,1,US,1551653771,16,39.95,-94.76,10.0,12.75
4,Port Lincoln,0,AU,1551654102,87,-34.72,135.86,69.07,9.55
5,Karratha,88,AU,1551653737,42,-20.74,116.85,85.36,2.84
6,Atuona,0,PF,1551653783,100,-9.8,-139.03,81.49,12.12
7,Lhokseumawe,20,ID,1551654103,100,5.18,97.15,82.3,4.41
8,Hermanus,0,ZA,1551653143,95,-34.42,19.24,64.0,2.95
9,Hilo,90,US,1551653716,68,19.71,-155.08,75.0,10.29
10,Nakhon Ratchasima,0,TH,1551650400,78,14.97,102.09,78.8,8.05
11,Bluff,0,AU,1551653713,58,-23.58,149.07,78.65,13.8
12,Vaini,0,IN,1551653743,85,15.34,74.49,58.09,1.16
13,Albany,90,US,1551653489,44,42.65,-73.75,37.4,5.82
14,Cabo San Lucas,5,MX,1551653443,36,22.89,-109.91,86.0,4.7
15,Djenne,0,ML,1551654114,41,13.91,-4.55,63.13,7.65
16,Trowbridge,90,GB,1551653889,80,51.32,-2.2,48.99,18.34
17,Bereda,40,ES,1551653642,71,43.27,-7.54,57.0,16.11
18,Port Elizabeth,90,US,1551653756,100,39.31,-74.98,39.0,6.93
19,San Andres,56,PH,1551654115,100,13.32,122.68,78.7,6.87
20,Airai,8,TL,1551653743,82,-8.93,125.41,75.82,1.61
21,Karachi,0,PK,1551651900,67,24.87,67.03,60.8,5.82
22,Balkanabat,92,TM,1551654115,89,39.51,54.36,36.76,2.73
23,Lompoc,75,US,1551653738,82,34.64,-120.46,62.6,6.93
24,Sao Filipe,0,CV,1551653758,91,14.9,-24.5,71.77,16.82
25,Tuktoyaktuk,90,CA,1551650400,85,69.44,-133.03,15.8,18.34
26,Gusinoye Ozero,12,RU,1551654125,66,51.11,106.26,12.64,3.18
27,Busselton,0,AU,1551653711,43,-33.64,115.35,66.0,18.39
28,Bowen,40,AU,1551653798,78,-20.01,148.25,78.01,12.75
29,Jamestown,48,AU,1551653738,78,-33.21,138.6,76.54,4.63
30,Hasaki,75,JP,1551653376,93,35.73,140.83,51.8,18.34
31,Ascoli Piceno,0,IT,1551654125,87,42.85,13.58,51.01,4.7
32,Ushuaia,40,AR,1551650400,50,-54.81,-68.31,53.6,16.82
33,Rikitea,68,PF,1551653715,100,-23.12,-134.97,79.51,12.24
34,Mataura,0,NZ,1551653405,54,-46.19,168.86,69.01,8.99
35,Santiago del Estero,44,AR,1551654000,46,-27.8,-64.26,90.85,14.7
36,Mar del Plata,24,AR,1551653800,42,-46.43,-67.52,60.65,18.39
37,Camabatela,44,AO,1551654140,91,-8.19,15.37,63.67,2.62
38,Hobart,0,AU,1551653656,55,-42.88,147.33,66.0,8.05
39,Castro,90,CL,1551650400,87,-42.48,-73.76,53.6,4.7
40,Vao,88,EE,1551653770,87,59.1,26.19,22.72,7.99
41,Shepsi,76,RU,1551654103,100,44.04,39.15,41.48,9.1
42,Strunino,0,RU,1551654142,68,56.37,38.59,8.86,8.1
43,Lensk,68,RU,1551654142,83,60.71,114.91,8.59,3.29
44,Newport,90,GB,1551653824,80,51.59,-3.0,46.99,18.34
45,Opuwo,0,NA,1551653993,51,-18.06,13.84,62.14,3.96
46,Stillwater,90,US,1551654126,58,36.12,-97.06,25.0,13.87
47,Huarmey,32,PE,1551654107,68,-10.07,-78.15,72.49,3.51
48,Warmbad,32,DE,1551654125,71,50.67,13.08,52.0,13.87
49,Kikwit,56,CD,1551654144,95,-5.04,18.82,71.36,2.95
50,New Norfolk,0,AU,1551653716,55,-42.78,147.06,66.0,8.05
51,Mecca,0,SA,1551654128,80,21.43,39.83,47.06,4.63
52,Saint Anthony,1,US,1551653717,53,43.97,-111.68,28.99,3.36
53,Olkhovka,68,RU,1551654145,84,53.21,60.61,17.36,13.58
54,Norman Wells,5,CA,1551650400,54,65.28,-126.83,5.0,2.24
55,Bandiagara,0,ML,1551654145,26,14.35,-3.61,63.53,8.66
56,Hervey Bay,90,AU,1551654008,78,-25.3,152.85,82.99,12.75
57,Codrington,40,AU,1551653667,83,-28.95,153.24,77.0,5.19
58,Georgetown,40,GY,1551650400,83,6.8,-58.16,78.8,11.41
59,Punta Arenas,20,CL,1551653593,53,-53.16,-70.91,51.8,21.92
60,Annau,0,TM,1551650400,82,37.89,58.52,48.2,4.7
61,Wajima,92,JP,1551654147,100,37.4,136.9,44.77,15.7
62,Kumluca,8,TR,1551654099,91,36.37,30.29,26.95,1.72
63,Erenhot,20,CN,1551654147,62,43.65,111.97,13.58,2.17
64,Iqaluit,75,CA,1551653568,69,63.75,-68.52,-7.01,3.36
65,Umm Lajj,0,SA,1551654099,100,25.02,37.27,53.86,4.18
66,Srednekolymsk,32,RU,1551654148,61,67.46,153.71,-13.42,2.62
67,Lebu,40,ET,1551650400,67,8.96,38.73,62.6,9.17
68,Curillo,12,CO,1551654149,89,1.03,-75.92,72.26,1.95
69,Lerwick,88,GB,1551653400,93,60.15,-1.15,44.6,9.17
70,Suhbaatar,56,MN,1551654149,67,50.23,106.21,15.83,2.39
71,Port Macquarie,100,AU,1551654004,78,-31.43,152.91,78.01,4.85
72,Ilulissat,64,GL,1551649800,79,69.22,-51.1,19.4,6.93
73,Thinadhoo,68,MV,1551653805,100,0.53,72.93,83.38,12.91
74,Loyga,8,RU,1551654150,69,61.08,44.61,0.98,6.08
75,Grahamstown,0,ZA,1551653965,91,-33.31,26.53,66.99,2.51
76,Shiyan,8,CN,1551654151,75,32.65,110.78,30.86,2.17
77,Fairbanks,90,US,1551653914,85,64.84,-147.72,25.0,3.62
78,Port Hedland,0,AU,1551650400,69,-20.31,118.58,78.8,4.7
79,Umea,0,SE,1551654005,85,63.83,20.26,15.8,2.24
80,Barrow,92,AR,1551653725,55,-38.31,-60.23,73.57,15.48
81,Hithadhoo,88,MV,1551653758,99,-0.6,73.08,83.6,11.23
82,Popondetta,92,PG,1551654152,96,-8.77,148.24,71.0,1.05
83,Qaanaaq,0,GL,1551653727,85,77.48,-69.36,-6.67,10.45
84,Victoria,75,BN,1551650400,100,5.28,115.24,78.8,4.29
85,Geraldton,40,CA,1551650400,49,49.72,-86.95,-0.41,9.17
86,Ponta do Sol,80,BR,1551654094,93,-20.63,-46.0,66.68,5.64
87,Namatanai,12,PG,1551654153,100,-3.66,152.44,83.11,5.64
88,Lisala,76,CD,1551654154,89,2.15,21.52,72.31,2.17
89,Torbay,90,CA,1551653304,85,47.66,-52.73,24.01,20.8
90,Loikaw,0,MM,1551654155,89,19.67,97.21,52.46,2.17
91,Kapaa,90,US,1551653596,60,22.08,-159.32,75.2,18.34
92,Pisco,40,PE,1551650400,30,-13.71,-76.2,71.6,18.34
93,Severo-Kurilsk,68,RU,1551653758,100,50.68,156.12,25.46,21.74
94,East London,0,ZA,1551653610,100,-33.02,27.91,74.83,16.37
95,Alyangula,12,AU,1551650400,100,-13.85,136.42,77.0,7.99
96,Tutoia,40,BR,1551649500,69,-2.76,-42.27,80.6,8.05
97,Sinnamary,92,GF,1551654157,88,5.38,-52.96,80.63,12.35
98,Tuatapere,56,NZ,1551653405,54,-46.13,167.69,69.01,8.99
99,Dapaong,8,TG,1551654157,29,10.86,0.2,72.31,5.75
100,Nhulunbuy,40,AU,1551650400,94,-12.18,136.78,78.8,7.76
101,Gouyave,75,GD,1551650400,69,12.16,-61.73,80.6,20.8
102,Yar-Sale,80,RU,1551654158,85,66.83,70.83,4.54,23.87
103,Manggar,32,ID,1551654158,98,-2.88,108.27,76.76,3.85
104,Businga,32,CD,1551654159,91,3.34,20.89,70.33,2.62
105,Bredasdorp,0,ZA,1551653140,82,-34.53,20.04,62.6,3.36
106,Nanortalik,80,GL,1551653825,100,60.14,-45.24,27.08,7.99
107,Payakumbuh,88,ID,1551654159,93,-0.23,100.63,71.0,1.5
108,Saint-Philippe,40,CA,1551653705,63,45.36,-73.48,30.2,6.93
109,Isangel,20,VU,1551653849,93,-19.55,169.27,84.28,6.98
110,Kualakapuas,40,ID,1551650400,94,-3.01,114.39,77.0,5.82
111,Dali,48,CN,1551653747,100,25.6,100.24,39.91,3.74
112,Waingapu,36,ID,1551654161,93,-9.65,120.26,79.24,3.51
113,Mandera,12,ET,1551654015,14,3.94,41.86,77.0,3.0
114,Leshukonskoye,68,RU,1551654161,71,64.9,45.76,8.36,3.4
115,Denison,90,US,1551654155,74,33.76,-96.54,32.0,14.99
116,Acapulco,5,MX,1551649740,74,16.86,-99.88,82.4,13.87
117,Lorengau,0,PG,1551653769,93,-2.02,147.27,84.82,5.75
118,Lachute,90,CA,1551654112,63,45.66,-74.34,30.2,4.7
119,Nandyal,0,IN,1551654115,90,15.47,78.48,69.2,3.62
120,Monrovia,20,LR,1551650400,94,6.33,-10.8,77.0,7.31
121,Clyde River,1,CA,1551650400,83,70.47,-68.59,-7.61,4.7
122,Longyearbyen,75,NO,1551649800,70,78.22,15.63,-4.01,6.93
123,Alofi,92,NU,1551650400,66,-19.06,-169.92,86.0,4.7
124,Bathsheba,20,BB,1551650400,69,13.22,-59.52,78.8,19.46
125,Avarua,68,CK,1551650400,70,-21.21,-159.78,84.2,6.93
126,Peniche,75,PT,1551654022,87,39.36,-9.38,59.0,11.41
127,Khatanga,32,RU,1551653775,70,71.98,102.47,-1.99,17.27
128,Nishihara,90,JP,1551653763,100,35.74,139.53,50.0,10.29
129,Ouadda,0,CF,1551654165,44,8.07,22.4,66.95,8.21
130,Cherskiy,32,RU,1551653731,71,68.75,161.3,-10.72,6.76
131,Povenets,68,RU,1551654166,85,62.85,34.83,11.74,2.84
132,Saint George,20,GR,1551649800,86,39.45,22.34,42.8,1.28
133,Cochabamba,75,BO,1551650400,38,-17.39,-66.16,73.4,5.82
134,Taltal,0,CL,1551653835,74,-25.41,-70.49,64.16,2.62
135,Saldanha,88,PT,1551653832,82,41.42,-6.55,51.83,13.47
136,Ahuimanu,1,US,1551654101,64,21.44,-157.84,78.8,11.41
137,Lyngseidet,90,NO,1551654020,92,69.58,20.21,19.4,11.41
138,Areia Branca,40,BR,1551650400,74,-10.76,-37.31,82.4,13.87
139,Provideniya,90,RU,1551650400,92,64.42,-173.23,30.2,33.55
140,Andapa,92,MG,1551654168,94,-14.66,49.65,70.69,2.17
141,Abadan,0,IR,1551650400,66,30.36,48.26,55.4,2.24
142,Ulaangom,32,MN,1551654169,66,49.98,92.07,-2.13,1.61
143,Fukue,75,JP,1551654106,93,35.03,136.69,51.01,5.82
144,Chipinge,8,ZW,1551653713,97,-20.19,32.62,69.25,2.95
145,Sao Joao da Barra,20,BR,1551650400,83,-21.64,-41.05,80.6,9.17
146,Axim,36,GH,1551654127,95,4.87,-2.24,83.6,15.37
147,Tasiilaq,92,GL,1551649800,73,65.61,-37.64,23.0,18.34
148,Kalmunai,44,LK,1551653843,97,7.42,81.82,73.25,2.73
149,Deputatskiy,0,RU,1551653798,49,69.3,139.9,-31.2,2.73
150,Pevek,68,RU,1551653750,87,69.7,170.27,4.4,9.22
151,Cidreira,20,BR,1551653756,79,-30.17,-50.22,73.66,11.01
152,Esperance,75,TT,1551653707,88,10.24,-61.45,75.2,12.75
153,Savinka,68,RU,1551654171,84,50.08,47.1,19.57,16.49
154,Shizuishan,0,CN,1551654172,61,39.02,106.36,15.7,2.39
155,Guaymango,0,SV,1551654172,65,13.75,-89.85,81.13,3.85
156,Kiama,0,AU,1551654136,69,-34.67,150.86,75.99,8.05
157,Butaritari,92,KI,1551653723,100,3.07,172.79,79.33,10.45
158,Upernavik,32,GL,1551653750,100,72.79,-56.15,8.95,3.29
159,Cape Town,0,ZA,1551653574,88,-33.93,18.42,66.99,2.24
160,Lavrentiya,88,RU,1551653752,95,65.58,-170.99,28.43,34.61
161,Ahipara,8,NZ,1551652023,72,-35.17,173.16,79.0,6.2
162,Tarancon,0,ES,1551654126,66,40.01,-3.01,53.01,4.7
163,Faanui,12,PF,1551653764,100,-16.48,-151.75,83.51,3.62
164,Lagoa,0,PT,1551653744,71,37.14,-8.45,57.2,8.05
165,Narsaq,68,GL,1551649800,50,60.91,-46.05,28.4,6.93
166,Clocolan,0,ZA,1551654175,66,-28.91,27.57,54.04,2.51
167,Skjervoy,68,NO,1551654175,100,70.03,20.97,29.74,13.8
168,Bilibino,68,RU,1551654175,60,68.06,166.44,-8.07,3.06
169,Dvurechensk,75,RU,1551650400,79,56.6,61.1,19.4,22.37
170,Aksarka,80,RU,1551654176,74,66.56,67.8,-3.52,23.53
171,Evanston,20,US,1551654045,40,42.04,-87.69,21.99,10.29
172,Madisonville,90,US,1551653907,92,37.33,-87.5,32.0,8.05
173,Mareeba,40,AU,1551654019,83,-16.99,145.42,79.0,9.17
174,Egvekinot,88,RU,1551654178,88,66.32,-179.17,25.69,11.23
175,Kasempa,32,ZM,1551654178,68,-13.46,25.83,66.23,3.74
176,Ossora,76,RU,1551653845,92,59.24,163.07,20.02,21.07
177,Carnarvon,0,ZA,1551653760,58,-30.97,22.13,57.19,3.4
178,Constitucion,20,MX,1551653417,7,23.99,-104.67,84.2,6.93
179,Zhezkazgan,92,KZ,1551653801,96,47.8,67.71,31.31,3.29
180,Bethel,1,US,1551650160,80,60.79,-161.76,32.0,12.75
181,Belyy Yar,80,RU,1551650400,86,53.6,91.39,28.4,7.99
182,Yulara,0,AU,1551650400,24,-25.24,130.99,78.8,11.41
183,Kuching,75,MY,1551652200,94,1.56,110.34,77.0,2.24
184,Balikpapan,40,ID,1551650400,94,-1.24,116.86,78.8,5.82
185,Mahebourg,40,MU,1551653646,83,-20.41,57.7,80.6,6.93
186,Verkhnechusovskiye Gorodki,12,RU,1551654180,84,58.17,57.11,8.23,6.64
187,Sturgeon Bay,1,US,1551653623,43,44.83,-87.38,12.2,5.82
188,George Town,75,MY,1551652200,83,5.42,100.33,78.8,4.7
189,Carcassonne,90,FR,1551654158,93,43.21,2.35,59.0,14.99
190,Wajid,8,SO,1551654182,54,3.81,43.25,75.95,10.89
191,Kattivakkam,20,IN,1551652200,94,13.22,80.32,77.0,2.24
192,Yerbogachen,0,RU,1551653715,68,61.28,108.01,1.43,2.62
193,Palu,24,ID,1551654183,88,-0.9,119.87,69.56,2.17
194,Makinsk,48,KZ,1551654183,90,52.63,70.42,26.68,16.82
195,Vallenar,0,CL,1551654183,81,-28.58,-70.76,64.48,1.83
196,Arak,0,IR,1551654184,89,34.1,49.69,20.38,3.18
197,Minggang,8,CN,1551654184,76,32.45,114.03,36.67,2.73
198,Rabaul,20,PG,1551654184,100,-4.2,152.17,81.49,3.18
199,Aden,92,YE,1551654185,100,12.79,45.03,77.93,5.64
200,Arraial do Cabo,88,BR,1551653740,95,-22.97,-42.02,78.79,7.2
201,Loandjili,40,CG,1551650400,88,-4.77,11.87,82.4,4.7
202,Coihueco,0,CL,1551653479,38,-36.63,-71.83,75.2,4.7
203,Sorrento,0,AU,1551654085,36,-31.82,115.75,78.8,16.11
204,Erdenet,0,MN,1551654186,49,49.03,104.04,6.16,2.62
205,Ayagoz,76,KZ,1551654187,95,47.96,80.43,21.37,2.62
206,Cururupu,100,BR,1551654187,93,-1.82,-44.87,76.45,3.62
207,Yenagoa,68,NG,1551654187,89,4.92,6.26,77.48,6.76
208,Thompson,90,CA,1551650400,65,55.74,-97.86,6.8,18.34
209,Sava,0,IT,1551654073,87,40.4,17.56,53.01,4.7
210,Hun,75,BE,1551654166,71,50.34,4.87,55.0,20.8
211,Nizhniy Tsasuchey,24,RU,1551654188,75,50.52,115.13,20.47,11.01
212,Treinta y Tres,0,UY,1551654189,61,-33.23,-54.39,67.76,10.11
213,Mocuba,32,MZ,1551654189,96,-16.84,36.99,74.74,6.98
214,Kutum,0,SD,1551654189,34,14.2,24.66,57.73,8.66
215,Mersing,36,MY,1551654190,85,2.43,103.84,77.62,7.43
216,Heide,75,DE,1551654180,87,54.19,9.09,50.0,20.8
217,Guerrero Negro,0,MX,1551653778,71,27.97,-114.04,63.8,16.37
218,Carutapera,44,BR,1551654191,97,-1.2,-46.02,74.74,4.85
219,Rundu,80,NA,1551654191,70,-17.91,19.77,70.55,1.61
220,Irricana,20,CA,1551654179,38,51.32,-113.6,10.99,5.82
221,Chimbarongo,75,CL,1551650400,43,-34.71,-71.04,73.4,11.41
222,Haines Junction,56,CA,1551653776,78,60.75,-137.51,13.27,2.62
223,Energetik,0,RU,1551654192,78,51.74,58.8,13.58,13.02
224,Kavieng,8,PG,1551653740,97,-2.57,150.8,85.09,3.96
225,Ribeira Grande,75,PT,1551650400,76,38.52,-28.7,55.4,6.93
226,Vestmannaeyjar,80,IS,1551654193,95,63.44,-20.27,37.57,13.8
227,De-Kastri,0,RU,1551654193,92,51.48,140.77,14.89,6.2
228,Tari,56,NG,1551654194,31,12.41,4.49,73.57,4.18
229,Bardejov,40,SK,1551654034,86,49.29,21.28,39.99,3.36
230,Lillooet,1,CA,1551650400,30,50.69,-121.94,28.4,4.7
231,Bien Hoa,20,VN,1551650400,83,10.95,106.82,77.0,3.36
232,Nara,75,JP,1551654064,100,34.68,135.8,50.0,1.12
233,Orapa,36,BW,1551654195,34,-21.28,25.37,80.23,7.54
234,Katsuura,90,JP,1551653682,93,33.93,134.5,50.0,4.7
235,Bundaberg,90,AU,1551653108,78,-24.87,152.35,82.0,12.75
236,Brigantine,90,US,1551654179,100,39.41,-74.36,39.0,3.36
237,Mineiros,12,BR,1551654063,87,-17.57,-52.55,71.18,4.18
238,Nome,90,US,1551653730,71,30.04,-94.42,54.0,20.8
239,Louga,0,SN,1551650400,49,15.62,-16.22,68.0,9.17
240,Tonbridge,20,GB,1551654194,81,51.19,0.27,50.0,14.99
241,Bumba,44,CD,1551654197,98,2.18,22.47,69.7,2.95
242,Antalaha,80,MG,1551654197,96,-14.9,50.28,77.71,5.97
243,Kawardha,0,IN,1551654198,88,22.01,81.23,55.12,2.39
244,Hovd,75,NO,1551654015,74,63.83,10.7,32.0,11.41
245,Yellowknife,20,CA,1551650400,36,62.45,-114.38,12.2,6.93
246,Bambous Virieux,40,MU,1551653646,83,-20.34,57.76,80.6,6.93
247,Coquimbo,20,CL,1551650400,72,-29.95,-71.34,66.2,12.75
248,Nikolskoye,20,RU,1551653434,92,59.7,30.79,16.0,4.47
249,Port Alfred,0,ZA,1551653666,90,-33.59,26.89,66.99,1.01
250,Kapit,88,MY,1551654200,97,2.02,112.94,73.84,2.84
251,Puerto Madero,0,AR,1551654196,73,-34.61,-58.36,77.0,13.87
252,Conil,0,FR,1551654200,41,44.97,3.72,44.95,9.22
253,Tessalit,0,ML,1551654092,23,20.2,1.01,54.58,6.98
254,Eirunepe,24,BR,1551654108,70,-6.66,-69.87,81.98,3.74
255,Araouane,0,ML,1551654201,36,18.9,-3.53,52.6,4.07
256,Carballo,40,ES,1551654153,71,43.21,-8.69,55.99,16.11
257,Puerto Ayora,40,EC,1551650400,70,-0.74,-90.35,86.0,11.41
258,Santa Fe,56,AR,1551654181,63,-31.62,-60.7,86.0,8.01
259,Kuito,44,AO,1551654205,89,-12.38,16.94,59.62,3.85
260,Poya,32,NC,1551654206,90,-21.35,165.16,78.61,4.85
261,Hami,0,CN,1551654206,61,42.84,93.51,22.76,5.86
262,Shelburne,90,CA,1551654188,85,44.08,-80.2,27.0,6.93
263,Dikson,36,RU,1551653745,95,73.51,80.55,-5.14,24.32
264,Souillac,0,FR,1551653730,38,45.6,-0.6,62.6,10.29
265,Tshikapa,48,CD,1551654207,97,-6.42,20.79,73.12,1.83
266,Olga,75,US,1551654205,67,34.11,-118.17,64.99,5.82
267,Makakilo City,20,US,1551653749,39,21.35,-158.09,78.8,6.93
268,Tiksi,44,RU,1551653717,67,71.64,128.87,-5.14,9.22
269,Baruun-Urt,44,MN,1551654208,45,46.68,113.28,18.67,7.2
270,Nabire,32,ID,1551653614,87,-3.36,135.5,74.38,1.72
271,Skutec,0,CZ,1551654119,65,49.84,16.0,48.0,6.93
272,Rome,40,IT,1551654183,87,41.89,12.48,52.0,3.36
273,Nanzhang,36,CN,1551654209,85,31.78,111.84,33.07,2.17
274,Chokurdakh,44,RU,1551653768,71,70.62,147.9,-10.41,5.86
275,Panzhihua,56,CN,1551654210,37,26.59,101.72,55.16,6.64
276,Tautira,20,PF,1551653589,62,-17.73,-149.15,89.6,5.82
277,Minas Novas,68,BR,1551654211,80,-17.22,-42.59,71.59,7.99
278,Tromso,90,NO,1551654020,92,69.65,18.96,19.4,11.41
279,Sorland,20,NO,1551649800,73,67.67,12.69,19.4,2.24
280,Kruisfontein,0,ZA,1551653826,84,-34.0,24.73,60.52,6.42
281,Moron,8,VE,1551654212,74,10.49,-68.2,72.35,3.96
282,Kaspiysk,90,RU,1551650400,80,42.88,47.64,35.6,4.47
283,Karlstad,90,SE,1551653400,100,59.38,13.5,33.8,5.82
284,Labuhan,8,ID,1551653821,86,-2.54,115.51,77.35,2.28
285,Sisimiut,48,GL,1551654213,57,66.94,-53.67,-2.04,1.95
286,Oistins,20,BB,1551650400,69,13.07,-59.53,78.8,19.46
287,Alexandria,90,US,1551654024,87,31.31,-92.44,50.0,6.93
288,Vardo,90,US,1551653721,94,39.62,-77.74,34.0,8.05
289,Sabha,0,LY,1551654215,54,27.03,14.43,49.36,4.74
290,Morros,75,BR,1551650400,88,-2.87,-44.04,78.8,9.17
291,Rupert,40,US,1551653580,59,42.62,-113.68,37.4,3.36
292,Zhangye,20,CN,1551654181,69,38.94,100.46,16.87,2.39
293,Areosa,75,PT,1551654190,93,41.72,-8.86,57.99,6.93
294,Klaksvik,92,FO,1551651600,81,62.23,-6.59,42.8,6.93
295,Gat,0,SN,1551652200,56,14.69,-16.54,68.0,18.34
296,Salalah,20,OM,1551649800,61,17.01,54.1,77.0,4.7
297,Praxedis Guerrero,40,MX,1551654106,16,31.37,-106.02,75.99,17.22
298,Cervo,92,BR,1551654217,93,-22.19,-46.24,65.74,5.53
299,Tilichiki,80,RU,1551654218,84,60.47,166.1,19.93,4.85
300,Taoudenni,0,ML,1551653747,30,22.68,-3.98,51.83,5.97
301,Walvis Bay,36,NA,1551650529,82,-22.95,14.51,66.99,8.05
302,Theunissen,0,ZA,1551654218,70,-28.4,26.71,59.62,3.06
303,Tomatlan,0,MX,1551654219,65,19.93,-105.25,80.41,3.51
304,Taksimo,68,RU,1551654224,71,56.36,114.84,10.3,2.39
305,Petropavlovsk-Kamchatskiy,56,RU,1551650400,60,53.05,158.65,8.6,8.95
306,Nuuk,0,GL,1551649800,92,64.17,-51.74,21.2,5.82
307,Safford,1,US,1551654014,25,32.83,-109.71,73.4,16.11
308,Mount Barker,0,AU,1551654214,56,-35.06,138.86,77.0,5.82
309,Henties Bay,8,NA,1551654125,86,-22.12,14.28,66.99,1.99
310,Buraydah,0,SA,1551650400,62,26.33,43.97,53.6,5.82
311,Kahului,20,US,1551653784,41,20.89,-156.47,80.01,14.99
312,Liwale,44,TZ,1551654226,95,-9.8,37.92,70.24,2.17
313,Ust-Omchug,0,RU,1551654226,63,61.13,149.63,-16.12,3.51
314,Fortuna,0,ES,1551653782,76,38.18,-1.13,60.01,2.24
315,Honningsvag,75,NO,1551653400,73,70.98,25.97,21.2,16.11
316,Los Llanos de Aridane,40,ES,1551653103,63,28.66,-17.92,64.4,8.05
317,Antibes,0,FR,1551654102,81,43.58,7.11,52.0,9.17
318,Kholm,88,RU,1551654227,97,57.15,31.18,27.04,10.89
319,Port Blair,0,IN,1551653783,100,11.67,92.75,80.95,3.4
320,Port-Gentil,75,GA,1551650400,78,-0.72,8.78,82.4,5.82
321,Gornopravdinsk,76,RU,1551654228,79,60.06,69.92,21.37,12.46
322,Port Hardy,90,CA,1551653400,74,50.7,-127.42,33.8,20.8
323,Vanimo,92,PG,1551654228,100,-2.67,141.3,81.94,11.9
324,Petrovskoye,0,RU,1551650400,92,56.26,36.47,17.6,6.71
325,Pangnirtung,64,CA,1551653772,66,66.15,-65.72,-9.55,0.94
326,Ketchikan,1,US,1551650160,19,55.34,-131.65,39.2,5.82
327,Chifeng,0,CN,1551654230,76,42.27,118.96,26.36,2.51
328,Avanigadda,0,IN,1551654230,89,16.02,80.92,76.36,7.76
329,Inirida,12,CO,1551654230,88,3.87,-67.92,78.07,2.62
330,Darlowo,92,PL,1551653989,92,54.42,16.41,40.63,6.76
331,Santa Rosa,92,AR,1551654233,90,-36.62,-64.29,68.17,7.87
332,Leh,68,IN,1551654233,73,34.16,77.58,-5.37,1.39
333,Tecoanapa,5,MX,1551653280,74,16.99,-99.26,82.4,13.87
334,Barra Patuca,100,HN,1551654234,88,15.8,-84.28,79.46,11.01
335,Mount Gambier,8,AU,1551650400,100,-37.83,140.78,55.4,4.7
336,Svetlogorsk,75,RU,1551650400,66,53.14,59.15,14.0,6.71
337,Bo Phloi,0,TH,1551654234,85,14.32,99.52,74.06,3.62
338,Yerofey Pavlovich,36,RU,1551653739,74,53.97,121.97,10.25,2.39
339,Senno,92,RU,1551650400,92,57.76,27.95,28.4,6.71
340,Mirabad,12,IR,1551654235,95,28.27,61.33,42.56,2.39
341,Alihe,48,CN,1551654236,65,50.57,123.73,13.45,2.51
342,Lubao,75,PH,1551654070,83,14.94,120.6,78.01,4.7
343,Hamilton,75,BM,1551653519,94,32.3,-64.78,68.0,3.36
344,San Rafael,8,AR,1551654237,77,-34.61,-68.33,60.88,3.85
345,Bodden Town,20,KY,1551654004,78,19.28,-81.25,82.4,10.29
346,Atar,0,MR,1551654237,23,20.52,-13.05,61.55,8.88
347,Hokitika,76,NZ,1551654092,99,-42.72,170.96,60.25,6.98
348,Ostrovnoy,36,RU,1551653727,69,68.05,39.51,-2.62,6.2
349,Awjilah,0,LY,1551653799,78,29.14,21.3,49.99,7.99
350,Ancud,90,CL,1551650400,87,-41.87,-73.83,53.6,4.7
351,Ayan,0,TR,1551654239,70,40.67,33.6,14.8,2.62
352,Sitka,56,US,1551653222,75,37.17,-99.65,10.99,10.0
353,Ponca City,1,US,1551653790,52,36.73,-97.07,24.8,18.34
354,Zhigalovo,20,RU,1551654239,69,54.81,105.15,7.87,2.17
355,Casino,92,AU,1551653966,83,-28.86,153.05,77.0,3.36
356,Lakes Entrance,0,AU,1551653747,75,-37.88,147.99,75.99,1.01
357,Bombo,20,UG,1551652200,73,0.58,32.54,75.2,16.11
358,Portland,20,US,1551654143,27,45.52,-122.67,44.6,26.4
359,Begles,0,FR,1551654239,33,44.81,-0.55,64.4,12.75
360,Sinegorye,44,RU,1551654241,78,62.09,150.53,-10.41,2.62
361,Bilma,0,NE,1551654242,25,18.69,12.92,55.3,9.78
362,Collie,0,AU,1551654011,43,-33.36,116.15,66.0,11.23
363,Khash,12,IR,1551654243,95,28.22,61.21,42.56,2.39
364,Pomabamba,68,PE,1551654243,96,-8.82,-77.46,46.16,2.17
365,Aklavik,75,CA,1551650400,51,68.22,-135.01,12.2,3.36
366,Oranjemund,56,ZA,1551653848,92,-28.55,16.43,62.95,8.21
367,Biak,12,ID,1551654244,86,-0.91,122.88,82.66,3.18
368,Mount Pleasant,90,US,1551654009,80,33.16,-94.97,39.0,16.11
369,Pagudpud,20,PH,1551650400,88,18.56,120.79,68.0,2.24
370,Yangjiang,100,CN,1551654245,100,21.85,111.96,69.79,14.7
371,Kavaratti,8,IN,1551654246,100,10.57,72.64,81.76,10.67
372,Chuy,0,UY,1551653735,82,-33.69,-53.46,66.37,11.23
373,Nisia Floresta,40,BR,1551650400,78,-6.09,-35.21,80.6,5.82
374,Beringovskiy,56,RU,1551653805,92,63.05,179.32,33.56,17.83
375,Ambon,76,FR,1551654142,93,47.55,-2.56,53.01,16.11
376,Sovetskiy,80,RU,1551654247,85,56.76,48.47,17.23,3.74
377,Half Moon Bay,75,US,1551654243,93,37.46,-122.43,57.99,8.05
378,Casa Nova,44,BR,1551654248,70,-11.77,-39.23,79.42,11.45
379,Santa Cruz,90,US,1551654218,76,36.97,-122.03,60.01,10.29
380,Monticello,1,US,1551654233,53,45.31,-93.79,-0.41,12.75
381,Chebsara,44,RU,1551654249,85,59.2,38.84,11.51,4.29
382,Kuytun,8,RU,1551654249,66,54.34,101.51,6.88,2.73
383,Bouloupari,75,NC,1551652200,74,-21.87,166.05,84.2,5.82
384,Vostochnyy,0,RU,1551650400,92,55.82,37.87,21.2,6.71
385,Dhuwaran,8,IN,1551654251,94,22.23,72.8,70.6,7.43
386,Fare,80,PF,1551654251,100,-16.7,-151.02,83.33,2.62
387,Repnoye,88,RU,1551654243,83,51.59,43.18,25.0,5.01
388,Batagay,8,RU,1551654256,51,67.65,134.64,-31.24,2.84
389,La Ronge,90,CA,1551650400,60,55.1,-105.3,8.6,16.11
390,Itarantim,12,BR,1551654257,76,-15.65,-40.06,74.83,7.65
391,Avera,90,US,1551653718,100,33.19,-82.53,68.0,11.41
392,Pompeu,20,BR,1551650400,58,-21.05,-48.85,82.4,6.93
393,Port Moresby,20,PG,1551650400,78,-9.47,147.16,82.4,11.41
394,Kisangani,36,CD,1551654259,100,0.52,25.21,70.91,4.07
395,Rudnogorsk,0,RU,1551654260,59,57.27,103.75,1.12,2.51
396,Toora-Khem,0,RU,1551654261,64,52.47,96.11,3.01,2.17
397,Syracuse,90,US,1551654026,63,43.05,-76.15,30.2,2.73
398,Chumikan,24,RU,1551654262,67,54.72,135.31,14.17,4.63
399,Miyako,75,JP,1551654248,81,33.63,130.94,51.8,4.7
400,Kushima,40,JP,1551654197,93,31.5,131.29,53.6,6.93
401,Berlevag,40,NO,1551649800,72,70.86,29.09,10.4,23.04
402,Pionerskiy,88,RU,1551654263,74,61.2,62.86,11.38,7.31
403,Mackenzie,1,CA,1551650400,40,55.34,-123.09,14.0,9.17
404,Kashira,20,RU,1551650400,92,54.84,38.15,19.4,6.71
405,Dourdan,75,FR,1551654241,81,48.53,2.01,53.6,31.09
406,Komsomolskiy,20,RU,1551654120,39,67.55,63.78,-13.02,5.64
407,Contamana,36,PE,1551654265,58,-7.35,-75.01,86.44,2.28
408,Asyut,0,EG,1551650400,54,27.18,31.19,53.6,12.75
409,Harper,90,US,1551654145,86,30.3,-99.24,39.0,14.99
410,Palmer,0,AU,1551653600,56,-34.85,139.16,75.99,5.82
411,Polunochnoye,88,RU,1551654266,79,60.87,60.43,9.71,5.3
412,Urukh,90,RU,1551650400,79,43.3,44.03,28.4,2.06
413,Palmeira,24,BR,1551654114,84,-25.43,-50.0,72.0,7.0
414,Rio Grande,0,BR,1551649500,69,-32.03,-52.1,73.4,8.05
415,Tual,64,ID,1551654268,100,-5.67,132.75,78.88,10.67
416,Batagay-Alyta,24,RU,1551654243,30,67.8,130.41,-22.56,2.62
417,Port Shepstone,32,ZA,1551654268,89,-30.74,30.45,73.12,17.38
418,San Cristobal,75,EC,1551653188,87,-0.39,-78.55,68.0,2.24
419,Nalut,0,LY,1551654269,91,31.86,10.98,43.73,2.84
420,Nemuro,0,JP,1551653781,95,43.32,145.57,31.99,6.2
421,Tateyama,75,JP,1551654141,100,36.66,137.31,45.0,2.24
422,Turukhansk,76,RU,1551654269,81,65.8,87.96,17.5,17.49
423,Ulagan,0,RU,1551654270,72,50.63,87.96,7.24,3.4
424,Iberia,64,PE,1551654270,54,-11.41,-69.49,87.16,2.51
425,Aksha,44,RU,1551654270,73,50.28,113.29,15.16,4.52
426,Puqi,12,CN,1551654271,100,29.72,113.88,42.65,3.18
427,Pathein,0,MM,1551654271,90,16.78,94.73,62.77,3.4
428,Letterkenny,40,IE,1551652200,65,54.95,-7.73,44.6,17.22
429,Turtas,88,RU,1551654271,76,58.94,69.13,22.45,12.24
430,Olinda,40,EC,1551654212,66,-2.03,-79.75,87.8,6.93
431,Solnechnyy,64,RU,1551654272,77,50.72,136.64,14.35,2.28
432,Itoman,90,JP,1551653760,77,26.12,127.67,66.2,19.46
433,Grand Gaube,40,MU,1551653646,83,-20.01,57.66,80.6,6.93
434,Shubarshi,64,KZ,1551654273,80,48.59,57.19,13.13,10.45
435,Plettenberg Bay,0,ZA,1551654273,95,-34.05,23.37,64.88,6.76
436,Ambulu,44,ID,1551654273,100,-8.35,113.61,80.77,5.41
437,Kenai,90,US,1551654124,89,60.55,-151.26,34.0,8.05
438,Sao Felix do Xingu,32,BR,1551653838,92,-6.64,-51.99,75.37,3.4
439,Kaitangata,0,NZ,1551653766,67,-46.28,169.85,69.61,10.45
440,Hukuntsi,44,BW,1551654274,21,-23.98,21.76,74.2,6.98
441,Caravelas,56,BR,1551654176,100,-17.73,-39.27,83.51,13.13
442,Makat,0,KZ,1551654274,89,47.65,53.35,4.09,3.18
443,Solone,0,UA,1551650400,73,48.2,34.88,28.4,13.42
444,Mount Isa,0,AU,1551650400,51,-20.73,139.49,80.6,7.87
445,Pouembout,24,NC,1551654275,81,-21.12,164.9,80.05,8.99
446,Muros,40,ES,1551654274,81,42.77,-9.06,57.99,16.11
447,Broome,36,GB,1551653721,66,52.47,1.45,50.0,25.28
448,Lufilufi,20,WS,1551654194,55,-13.87,-171.6,89.6,9.17
449,Nador,0,MA,1551652200,87,35.17,-2.93,53.6,3.36
450,Kuala Terengganu,75,MY,1551650400,94,5.33,103.14,71.6,3.36
451,Bossangoa,32,CF,1551654276,90,6.5,17.45,70.91,1.39
452,Saskylakh,76,RU,1551653752,54,71.97,114.09,-19.27,3.96
453,Tagusao,0,PH,1551653839,91,9.19,117.81,77.66,2.62
454,Paamiut,0,GL,1551654179,100,61.99,-49.67,24.38,7.65
455,Ippy,36,CF,1551654277,46,6.26,21.2,73.03,8.1
456,Coihaique,40,CL,1551650400,50,-45.58,-72.07,53.6,4.7
457,Williston,40,US,1551653197,70,48.15,-103.62,-0.01,21.92
458,Beatrice,1,US,1551653952,54,40.27,-96.75,7.0,16.11
459,Brookings,20,US,1551653828,76,44.31,-96.8,-2.21,23.04
460,Barcelos,75,PT,1551654190,93,41.53,-8.62,57.2,6.93
461,Manokwari,56,ID,1551654279,100,-0.87,134.08,80.0,7.99
462,Tabou,8,CI,1551654279,95,4.42,-7.36,83.65,9.78
463,Goderich,80,CA,1551654276,33,43.74,-81.71,21.99,1.99
464,Port Keats,0,AU,1551654280,87,-14.25,129.55,85.54,9.55
465,Awbari,0,LY,1551654280,53,26.59,12.77,46.03,2.73
466,Luwuk,12,ID,1551654095,86,-0.95,122.79,82.66,3.18
467,Sangmelima,24,CM,1551654060,94,2.93,11.98,71.05,2.95
468,Cayenne,88,GF,1551652200,74,4.94,-52.33,78.8,4.7
469,Kamaishi,75,JP,1551652800,80,39.28,141.86,33.8,2.24
470,Camopi,56,GF,1551654281,71,3.17,-52.33,78.07,4.63
471,Apatity,24,RU,1551654281,66,67.57,33.4,-10.32,2.62
472,Sungairaya,64,ID,1551654281,97,0.7,108.9,74.15,3.62
473,Anadyr,90,RU,1551653593,92,64.73,177.51,30.2,40.26
474,Arman,0,RU,1551653753,54,59.7,150.17,5.93,12.46
475,Colesberg,0,ZA,1551654282,66,-30.72,25.1,59.8,3.96
476,Camalu,44,MX,1551654282,60,30.85,-116.07,61.33,13.02
477,Mehamn,75,NO,1551649800,85,71.03,27.85,21.2,28.86
478,Port Arthur,90,US,1551654007,71,29.9,-93.93,53.6,20.8
479,Natchitoches,90,US,1551653887,87,31.76,-93.09,46.4,13.87
480,Vostok,0,RU,1551653832,73,46.45,135.83,23.93,2.39
481,Tecpan,40,GT,1551654018,60,14.76,-90.99,75.2,11.41
482,Azul,92,AR,1551654011,86,-36.78,-59.86,64.99,1.01
483,Rio Gallegos,40,AR,1551650400,26,-51.62,-69.22,59.0,13.87
484,Shihezi,48,CN,1551653775,69,44.3,86.03,10.7,3.51
485,Constantine,0,DZ,1551652200,81,36.36,6.61,42.8,2.62
486,Andros Town,75,BS,1551654019,74,24.73,-77.79,79.0,10.29
487,Saint-Augustin,0,FR,1551653648,33,44.83,-0.61,64.4,12.75
488,San Pedro,64,AR,1551654287,58,-33.68,-59.66,78.97,11.79
489,Praia da Vitoria,75,PT,1551650400,82,38.73,-27.07,55.4,13.24
490,Okhotsk,0,RU,1551654287,100,59.36,143.24,1.39,7.43
491,Omboue,92,GA,1551654287,99,-1.57,9.26,83.83,8.77
492,Muhos,0,FI,1551653400,91,64.81,26.0,-4.01,4.7
493,Vanavara,0,RU,1551654288,65,60.35,102.28,2.47,3.4
494,Puerto del Rosario,75,ES,1551652200,63,28.5,-13.86,66.2,16.11
495,Esil,48,KZ,1551654289,81,51.96,66.41,21.91,16.26
496,La Asuncion,56,EC,1551654289,98,-1.64,-78.74,49.18,1.28
497,Mogadishu,24,SO,1551654077,100,2.04,45.34,79.01,10.78
498,Cabra,8,ES,1551654197,58,37.47,-4.43,57.2,6.93
499,Cabedelo,40,BR,1551654000,88,-6.97,-34.84,78.8,2.24
500,Pacific Grove,90,US,1551654030,87,36.62,-121.92,60.01,10.29
501,Hualmay,32,PE,1551654290,78,-11.1,-77.61,71.81,4.29
502,Puerto Escondido,20,MX,1551652860,69,15.86,-97.07,82.4,11.41
503,Mpika,68,ZM,1551654291,85,-11.84,31.4,64.57,5.19
504,Sarakhs,12,TM,1551650400,61,36.54,61.16,50.0,6.93
505,Amapa,20,HN,1551654000,66,15.09,-87.97,84.2,17.22
506,Ishigaki,75,JP,1551650400,77,24.34,124.16,68.0,13.87
507,Moussoro,0,TD,1551654292,32,13.64,16.49,78.61,11.79
508,Omsukchan,80,RU,1551654107,63,62.53,155.8,-10.23,5.64
509,Marsta,68,SE,1551654109,100,59.93,17.59,32.0,5.82
510,Bonavista,88,CA,1551653261,79,48.65,-53.11,23.0,1.01
511,Bauru,40,BR,1551654034,88,-22.32,-49.07,75.2,5.82
512,Ichhawar,0,IN,1551654293,91,23.03,77.02,61.42,6.31
513,Mhlume,0,SZ,1551654050,88,-26.03,31.81,75.0,2.24
514,Kysyl-Syr,32,RU,1551654294,56,63.9,122.77,-6.04,2.73
515,Kirakira,76,SB,1551653741,100,-10.46,161.92,81.71,8.88
516,Wamba,12,CD,1551654294,95,2.14,27.99,66.95,2.17
517,Northam,20,GB,1551653790,81,51.04,-4.21,46.4,4.7
518,Tchollire,56,CM,1551654295,53,8.4,14.17,81.26,3.96
519,Pictou,0,CA,1551654197,81,45.68,-62.71,23.0,1.99
520,Santander Jimenez,68,MX,1551654295,56,24.22,-98.47,85.4,9.89
521,Alugan,92,PH,1551654296,99,12.22,125.48,77.71,7.76
522,Maraa,0,BR,1551654296,85,-1.83,-65.37,79.96,4.18
523,Sambava,56,MG,1551654297,100,-14.27,50.17,79.69,10.0
524,Dakar,0,SN,1551652200,56,14.69,-17.45,68.0,18.34
525,Bukama,44,CD,1551654297,95,-9.2,25.85,68.75,3.4
526,Fort Nelson,5,CA,1551650400,40,58.81,-122.69,15.8,2.39
527,Koraput,44,IN,1551654297,83,18.81,82.72,60.65,2.17
528,Alindao,24,CF,1551654298,87,5.04,21.21,70.73,6.2
529,Mangrol,0,IN,1551654298,83,25.33,76.51,52.96,1.72
530,Rurrenabaque,8,BO,1551653779,88,-14.44,-67.53,75.73,1.95
531,Yumen,0,CN,1551653726,62,40.29,97.04,18.22,4.97
532,Ponta Delgada,40,PT,1551653653,62,37.73,-25.67,59.0,9.17
533,Siocon,76,PH,1551654299,98,11.03,124.04,79.33,6.2
534,San Patricio,0,PY,1551653808,74,-26.98,-56.83,77.08,2.51
535,Hambantota,20,LK,1551653771,100,6.12,81.12,77.44,4.97
536,Luanda,40,AO,1551650400,83,-8.83,13.24,80.6,6.93
537,Adrar,0,DZ,1551650400,15,27.87,-0.29,64.4,5.82
538,Gazanjyk,44,TM,1551654300,94,39.24,55.52,34.96,3.74
539,Marsh Harbour,88,BS,1551654300,100,26.54,-77.06,70.33,9.1
540,Hobyo,88,SO,1551654099,91,5.35,48.53,77.17,11.34
541,Lata,0,IN,1551654041,88,30.78,78.62,28.03,2.51
542,Valparaiso,1,US,1551654097,67,41.47,-87.06,23.0,12.75
543,Kaz,88,RU,1551654301,92,53.11,87.55,30.5,3.96
544,Madang,92,PG,1551654301,100,-5.21,145.81,74.06,5.97
545,Grindavik,0,IS,1551653655,80,63.84,-22.43,39.2,21.92
546,Norsup,0,VU,1551654302,74,-16.07,167.38,86.71,5.19
547,Bela Vista,0,BR,1551654302,48,-22.11,-56.53,78.2,9.1
548,Jalu,0,LY,1551653809,71,29.03,21.55,49.9,8.66
549,Imbituba,40,BR,1551650400,83,-28.24,-48.67,78.8,8.05
550,Anqing,0,CN,1551654304,93,30.51,117.04,41.53,2.95
551,Vanderhoof,0,CA,1551654063,35,54.02,-124.02,14.71,3.29
552,Reconquista,8,AR,1551654304,48,-29.14,-59.64,85.0,10.22
553,Ulladulla,0,AU,1551650400,69,-35.36,150.48,75.2,8.05
554,Cockburn Town,0,TC,1551653673,96,21.46,-71.14,78.07,18.84
555,Abu Dhabi,20,AE,1551654000,63,24.47,54.37,64.4,8.05
556,Mnogovershinnyy,0,RU,1551654306,67,53.94,139.92,4.63,3.29
557,Beisfjord,75,NO,1551654290,61,68.38,17.6,21.0,13.87
558,Havoysund,90,NO,1551651600,92,71.0,24.66,24.8,39.15
559,Nanhai,56,CN,1551654249,89,30.13,111.78,44.01,2.06
